{
"type": "FeatureCollection",
"name": "sourcesites",
"features": [
{ "type": "Feature", "properties": { "SiteName": "Harrison Township", "Description": "Harrison Township Ozone and NO\/NOx Site", "AirNowMnemonic": "HT1", "address": "Highlands Senior High School - 1500 Pacific Avenue Natrona Heights, PA 15065", "County": null, "Enabled": true }, "geometry": { "type": "Point", "coordinates": [ -79.729569, 40.613864 ] } },
{ "type": "Feature", "properties": { "SiteName": "South Fayette", "Description": "South Fayette Ozone Site", "AirNowMnemonic": "SF1", "address": "South Fayette Elementary School - 3640 Old Oakdale Road McDonald, PA 15057", "County": null, "Enabled": true }, "geometry": { "type": "Point", "coordinates": [ -80.169931, 40.375647 ] } },
{ "type": "Feature", "properties": { "SiteName": "Lawrenceville", "Description": "Lawrenceville Ozone, and Met Site", "AirNowMnemonic": "LV1", "address": "Allegheny County Health Department - 301 39th Street, Building 7 Pittsburgh, PA 15201", "County": null, "Enabled": true }, "geometry": { "type": "Point", "coordinates": [ -79.960742, 40.465433 ] } },
{ "type": "Feature", "properties": { "SiteName": "Liberty", "Description": "Liberty Borough South Allegheny High School Site", "AirNowMnemonic": null, "address": "South Allegheny High School - 2743 Washington Blvd McKeesport, PA 15133", "County": "", "Enabled": true }, "geometry": { "type": "Point", "coordinates": [ -79.868064, 40.323856 ] } },
{ "type": "Feature", "properties": { "SiteName": "West Allegheny", "Description": "West Allegheny H2S Site", "AirNowMnemonic": null, "address": null, "County": null, "Enabled": false }, "geometry": { "type": "Point", "coordinates": [ -80.267303, 40.444747 ] } },
{ "type": "Feature", "properties": { "SiteName": "Avalon", "Description": "Avalon PM-2.5 Site", "AirNowMnemonic": null, "address": "520 Orchard Street Pittsburgh, PA 15202", "County": "", "Enabled": true }, "geometry": { "type": "Point", "coordinates": [ -80.071347, 40.499789 ] } },
{ "type": "Feature", "properties": { "SiteName": "Lawrenceville 2", "Description": "LV2 NCORE site", "AirNowMnemonic": null, "address": "Allegheny County Health Department - 01 39th Street, Building 7 Pittsburgh, PA 15201", "County": null, "Enabled": true }, "geometry": { "type": "Point", "coordinates": [ -79.960742, 40.465433 ] } },
{ "type": "Feature", "properties": { "SiteName": "Monroeville", "Description": "PM-10 BAM Site", "AirNowMnemonic": null, "address": null, "County": null, "Enabled": false }, "geometry": { "type": "Point", "coordinates": [ -79.770961, 40.450117 ] } },
{ "type": "Feature", "properties": { "SiteName": "North Braddock", "Description": "PM-10 BAM Site", "AirNowMnemonic": "NB", "address": "North Braddock Borough Building - 600 Anderson Street Braddock, PA 15104", "County": null, "Enabled": true }, "geometry": { "type": "Point", "coordinates": [ -79.860942, 40.402267 ] } },
{ "type": "Feature", "properties": { "SiteName": "Clairton", "Description": "Clairton PM-2.5 Site", "AirNowMnemonic": null, "address": "Clairton Educational Center - 501 Waddel Street Clairton, PA 15025", "County": "", "Enabled": true }, "geometry": { "type": "Point", "coordinates": [ -79.885303, 40.294381 ] } },
{ "type": "Feature", "properties": { "SiteName": "Pittsburgh 8_Manchester", "Description": null, "AirNowMnemonic": null, "address": "Manchester Elementary School - 1612 Manhattan Street Pittsburgh, PA 15233", "County": "", "Enabled": false }, "geometry": { "type": "Point", "coordinates": [ -80.026417, 40.456383 ] } },
{ "type": "Feature", "properties": { "SiteName": "Lincoln", "Description": "Lincoln Borough PM-10 & PM-2.5", "AirNowMnemonic": null, "address": "Bellbridge Road Elizabeth, PA 15037", "County": null, "Enabled": false }, "geometry": { "type": "Point", "coordinates": [ -79.869103, 40.308278 ] } },
{ "type": "Feature", "properties": { "SiteName": "Parkway East", "Description": "Near Road CO and NO2 Monitor", "AirNowMnemonic": null, "address": "Hosanna House Event Center - 400 Sherwood Road Pittsburgh, PA 15221", "County": null, "Enabled": true }, "geometry": { "type": "Point", "coordinates": [ -79.863572, 40.437431 ] } },
{ "type": "Feature", "properties": { "SiteName": "Natrona Lead", "Description": null, "AirNowMnemonic": null, "address": "79 North Canal Street Natrona,  ", "County": "Allegheny", "Enabled": false }, "geometry": { "type": "Point", "coordinates": [ -79.719397, 40.618917 ] } },
{ "type": "Feature", "properties": { "SiteName": "Bridgeville", "Description": "Lead", "AirNowMnemonic": null, "address": "1311 Union Street Bridgeville,  ", "County": "Allegheny", "Enabled": false }, "geometry": { "type": "Point", "coordinates": [ -80.102131, 40.362992 ] } },
{ "type": "Feature", "properties": { "SiteName": "Liberty 2", "Description": "Liberty Borough South Allegheny High School Site", "AirNowMnemonic": "LB1", "address": "South Allegheny High School - 2743 Washington Blvd McKeesport, PA 15133", "County": null, "Enabled": true }, "geometry": { "type": "Point", "coordinates": [ -79.868064, 40.323856 ] } },
{ "type": "Feature", "properties": { "SiteName": "Glassport High Street", "Description": "Glassport High Street PM-10", "AirNowMnemonic": null, "address": "Water Tower on High Street Glassport, PA 15045", "County": null, "Enabled": true }, "geometry": { "type": "Point", "coordinates": [ -79.881747, 40.326019 ] } },
{ "type": "Feature", "properties": { "SiteName": "Flag Plaza", "Description": "Downtown PM-10 and CO", "AirNowMnemonic": null, "address": "Boy Scouts of America Building - 1275 Bedford Avenue Pittsburgh, PA 15219", "County": null, "Enabled": false }, "geometry": { "type": "Point", "coordinates": [ -79.990353, 40.443417 ] } },
{ "type": "Feature", "properties": { "SiteName": "Court House", "Description": "Downtown CO Site", "AirNowMnemonic": null, "address": null, "County": null, "Enabled": false }, "geometry": { "type": "Point", "coordinates": [ -79.9968, 40.438369 ] } },
{ "type": "Feature", "properties": { "SiteName": "West Mifflin", "Description": "SO2 Monitor", "AirNowMnemonic": null, "address": "New Emerson Elementary School - 1922 Pennsylvania Avenue West Mifflin, PA 15122", "County": null, "Enabled": false }, "geometry": { "type": "Point", "coordinates": [ -79.86506, 40.3629 ] } },
{ "type": "Feature", "properties": { "SiteName": "Liberty Trailer", "Description": "Trailer on site of South Allegheny HS (Liberty Borough)", "AirNowMnemonic": null, "address": "South Allegheny High School - 2743 Washington Blvd McKeesport, PA 15133", "County": "Allegheny", "Enabled": true }, "geometry": { "type": "Point", "coordinates": [ -79.866448, 40.324736 ] } }
]
}
